[
  { "name": "An Giang", "lat": 10.521, "lon": 105.125 },
  { "name": "Bà Rịa - Vũng Tàu", "lat": 10.541, "lon": 107.242 },
  { "name": "Bạc Liêu", "lat": 9.294, "lon": 105.727 },
  { "name": "Bắc Giang", "lat": 21.273, "lon": 106.194 },
  { "name": "Bắc Kạn", "lat": 22.147, "lon": 105.834 },
  { "name": "Bắc Ninh", "lat": 21.186, "lon": 106.076 },
  { "name": "Bến Tre", "lat": 10.243, "lon": 106.375 },
  { "name": "Bình Dương", "lat": 11.001, "lon": 106.658 },
  { "name": "Bình Định", "lat": 13.782, "lon": 109.219 },
  { "name": "Bình Phước", "lat": 11.748, "lon": 106.728 },
  { "name": "Bình Thuận", "lat": 11.090, "lon": 108.072 },
  { "name": "Cà Mau", "lat": 9.176, "lon": 105.152 },
  { "name": "Cao Bằng", "lat": 22.666, "lon": 106.252 },
  { "name": "Cần Thơ", "lat": 10.045, "lon": 105.746 },
  { "name": "Đà Nẵng", "lat": 16.054, "lon": 108.202 },
  { "name": "Đắk Lắk", "lat": 12.710, "lon": 108.237 },
  { "name": "Đắk Nông", "lat": 12.234, "lon": 107.609 },
  { "name": "Điện Biên", "lat": 21.383, "lon": 103.016 },
  { "name": "Đồng Nai", "lat": 10.945, "lon": 106.824 },
  { "name": "Đồng Tháp", "lat": 10.472, "lon": 105.643 },
  { "name": "Gia Lai", "lat": 13.807, "lon": 108.109 },
  { "name": "Hà Giang", "lat": 22.823, "lon": 104.983 },
  { "name": "Hà Nam", "lat": 20.541, "lon": 105.918 },
  { "name": "Hà Nội", "lat": 21.028, "lon": 105.854 },
  { "name": "Hà Tĩnh", "lat": 18.355, "lon": 105.887 },
  { "name": "Hải Dương", "lat": 20.937, "lon": 106.314 },
  { "name": "Hải Phòng", "lat": 20.844, "lon": 106.688 },
  { "name": "Hậu Giang", "lat": 9.757, "lon": 105.641 },
  { "name": "Hòa Bình", "lat": 20.817, "lon": 105.337 },
  { "name": "Hưng Yên", "lat": 20.646, "lon": 106.051 },
  { "name": "Khánh Hòa", "lat": 12.258, "lon": 109.052 },
  { "name": "Kiên Giang", "lat": 10.012, "lon": 105.080 },
  { "name": "Kon Tum", "lat": 14.352, "lon": 107.990 },
  { "name": "Lai Châu", "lat": 22.394, "lon": 103.460 },
  { "name": "Lạng Sơn", "lat": 21.845, "lon": 106.761 },
  { "name": "Lào Cai", "lat": 22.485, "lon": 103.970 },
  { "name": "Lâm Đồng", "lat": 11.940, "lon": 108.458 },
  { "name": "Long An", "lat": 10.535, "lon": 106.415 },
  { "name": "Nam Định", "lat": 20.438, "lon": 106.162 },
  { "name": "Nghệ An", "lat": 19.234, "lon": 104.920 },
  { "name": "Ninh Bình", "lat": 20.250, "lon": 105.974 },
  { "name": "Ninh Thuận", "lat": 11.578, "lon": 108.986 },
  { "name": "Phú Thọ", "lat": 21.397, "lon": 105.254 },
  { "name": "Phú Yên", "lat": 13.088, "lon": 109.092 },
  { "name": "Quảng Bình", "lat": 17.484, "lon": 106.595 },
  { "name": "Quảng Nam", "lat": 15.573, "lon": 108.474 },
  { "name": "Quảng Ngãi", "lat": 15.120, "lon": 108.800 },
  { "name": "Quảng Ninh", "lat": 21.003, "lon": 107.292 },
  { "name": "Quảng Trị", "lat": 16.753, "lon": 107.191 },
  { "name": "Sóc Trăng", "lat": 9.603, "lon": 105.971 },
  { "name": "Sơn La", "lat": 21.328, "lon": 103.914 },
  { "name": "Tây Ninh", "lat": 11.311, "lon": 106.106 },
  { "name": "Thái Bình", "lat": 20.448, "lon": 106.342 },
  { "name": "Thái Nguyên", "lat": 21.567, "lon": 105.825 },
  { "name": "Thanh Hóa", "lat": 19.807, "lon": 105.776 },
  { "name": "Thừa Thiên Huế", "lat": 16.463, "lon": 107.590 },
  { "name": "Tiền Giang", "lat": 10.449, "lon": 106.342 },
  { "name": "TP. Hồ Chí Minh", "lat": 10.776, "lon": 106.700 },
  { "name": "Trà Vinh", "lat": 9.812, "lon": 106.299 },
  { "name": "Tuyên Quang", "lat": 21.823, "lon": 105.214 },
  { "name": "Vĩnh Long", "lat": 10.254, "lon": 105.973 },
  { "name": "Vĩnh Phúc", "lat": 21.355, "lon": 105.548 },
  { "name": "Yên Bái", "lat": 21.705, "lon": 104.872 }
]
